[
  {
    "name": "Farmacia Abad Sancho, Ana Maria",
    "phone": "976552907",
    "latitude": 41.648822,
    "longitude": -0.889085
  },
  {
    "name": "Farmacia Alcañiz Sancho, Soledad Celeste",
    "phone": "976755869",
    "latitude": 41.652953,
    "longitude": -0.885653
  },
  {
    "name": "Farmacia García Lozano, Mª Natividad",
    "phone": "976552276",
    "latitude": 41.648118,
    "longitude": -0.882454
  },
  {
    "name": "Farmacia Alfonso Muniesa Alfonso Collado",
    "phone": "976220290",
    "latitude": 41.645789,
    "longitude": -0.890786
  },
  {
    "name": "Farmacia Carcar Martínez, María Pilar",
    "phone": "976345650",
    "latitude": 41.650978,
    "longitude": -0.895432
  },
  {
    "name": "Farmacia Almarcegui Ballesta, María Teresa",
    "phone": "976427842",
    "latitude": 41.646843,
    "longitude": -0.887989
  },
  {
    "name": "Farmacia Larriba Jaime, Maria Pilar",
    "phone": "976518520",
    "latitude": 41.647892,
    "longitude": -0.888623
  },
  {
    "name": "Farmacia Alonso Jiménez, María Piedad",
    "phone": "976517598",
    "latitude": 41.648256,
    "longitude": -0.890742
  },
  {
    "name": "Farmacia Alquezar Ballano Alquezar Ballano",
    "phone": "976354815",
    "latitude": 41.651123,
    "longitude": -0.882341
  },
  {
    "name": "Farmacia Alquezar Lázaro, Ana Cristina",
    "phone": "976274078",
    "latitude": 41.647645,
    "longitude": -0.884657
  },
  {
    "name": "Farmacia Machín Álvarez, Montserrat",
    "phone": "976271508",
    "latitude": 41.650345,
    "longitude": -0.892987
  },
  {
    "name": "Farmacia Amigot Polo, Isabel",
    "phone": "976564720",
    "latitude": 41.652231,
    "longitude": -0.885432
  },
  {
    "name": "Farmacia Andrés Magallón - De Andrés Clemente-Alloza",
    "phone": "976332929",
    "latitude": 41.648987,
    "longitude": -0.887543
  },
  {
    "name": "Farmacia Andreu Fauquet, Esperanza",
    "phone": "976439709",
    "latitude": 41.645678,
    "longitude": -0.883212
  },
  {
    "name": "Farmacia Daniel Perez Andreu",
    "phone": "976443372",
    "latitude": 41.644321,
    "longitude": -0.890976
  },
  {
    "name": "Farmacia Ansuategui Muzas, Federico Jaime",
    "phone": "976296680",
    "latitude": 41.646123,
    "longitude": -0.883764
  },
  {
    "name": "Farmacia José Luis Aranda Ortega",
    "phone": "976211745",
    "latitude": 41.648754,
    "longitude": -0.886342
  },
  {
    "name": "Farmacia Ortopedia Sara Royo",
    "phone": "976521038",
    "latitude": 41.650231,
    "longitude": -0.888231
  },
  {
    "name": "Farmacia Arias Villa- Arias Villa",
    "phone": "976372827",
    "latitude": 41.651345,
    "longitude": -0.882123
  },
  {
    "name": "Farmacia Arruti Guerrero, Lorea",
    "phone": "976523258",
    "latitude": 41.644987,
    "longitude": -0.883543
  }
]
